[
	{
		"lat": "59.651525",
		"lng": "12.621317",
		"title": "Arvika festival",
		"description": "My favorite festival",
		"url": "none",
		"wikiPage": "Arvika_Festival",
		"flickrImg": {
			"album": "72157667006546544",
			"imgId": "3732513819",
			"url": "https://www.flickr.com/photos/froderik/3732513819/in/gallery-140003651@N02-72157667006546544/"
		}
	},
	{
		"lat": "57.696075",
		"lng": "11.991835",
		"title": "Liseberg",
		"description": "Awesome amusement park in a beautiful city",
		"url": "none",
		"wikiPage": "Liseberg",
		"flickrImg": {
			"album": "72157667006546544",
			"imgId": "22511391902",
			"url": "https://www.flickr.com/photos/benharwood1970/22511391902/in/gallery-140003651@N02-72157667006546544/"
		}
	},
	{
		"lat": "56.12537",
		"lng": "14.67962",
		"title": "Sweden Rock",
		"description": "We all just love rock :)",
		"url": "none",
		"wikiPage": "Sweden_Rock_Festival",
		"flickrImg": {
			"album": "72157667006546544",
			"imgId": "16854883252",
			"url": "https://www.flickr.com/photos/8938997@N05/16854883252/in/gallery-140003651@N02-72157667006546544/"
		}
	},
	{
		"lat": "60.485603",
		"lng": "15.436302",
		"title": "Peace & Love",
		"description": "Peaceful and lovely",
		"url": "none",
		"wikiPage": "Peace_%26_Love_(festival)",
		"flickrImg": {
			"album": "72157667006546544",
			"imgId": "7460281556",
			"url": "https://www.flickr.com/photos/possan/7460281556/in/gallery-140003651@N02-72157667006546544/"
		}
	},
	{
		"lat": "56.630686",
		"lng": "15.540006",
		"title": "Emmaboda festival",
		"description": "Great line-up this year!",
		"url": "none",
		"wikiPage": "Emmaboda",
		"flickrImg": {
			"album": "72157667006546544",
			"imgId": "104835342",
			"url": "https://www.flickr.com/photos/imre/104835342/in/gallery-140003651@N02-72157667006546544/"
		}
	}
]